Documents/CubeSat_Sub-Systems/Power/Data/cubesat lighting.txt

                                                                   06 Dec 2015 21:08:14
Satellite-CubeSat:  Lighting


Sunlight Times
--------------
                      Start Time (UTCG)           Stop Time (UTCG)        Duration (sec)
                  ------------------------    ------------------------    --------------
                   3 Dec 2015 18:00:00.000     3 Dec 2015 18:00:19.378            19.378
                   3 Dec 2015 18:34:05.354     3 Dec 2015 19:33:11.570          3546.216
                   3 Dec 2015 20:06:56.592     3 Dec 2015 21:06:03.775          3547.183
                   3 Dec 2015 21:39:47.851     3 Dec 2015 22:38:55.992          3548.140
                   3 Dec 2015 23:12:39.136     4 Dec 2015 00:11:48.221          3549.084
                   4 Dec 2015 00:45:30.441     4 Dec 2015 01:44:40.459          3550.018
                   4 Dec 2015 02:18:21.768     4 Dec 2015 03:17:32.712          3550.945
                   4 Dec 2015 03:51:13.117     4 Dec 2015 04:50:24.975          3551.858
                   4 Dec 2015 05:24:04.488     4 Dec 2015 06:23:17.248          3552.760
                   4 Dec 2015 06:56:55.881     4 Dec 2015 07:56:09.532          3553.651
                   4 Dec 2015 08:29:47.296     4 Dec 2015 09:29:01.825          3554.529
                   4 Dec 2015 10:02:38.733     4 Dec 2015 11:01:54.126          3555.393
                   4 Dec 2015 11:35:30.192     4 Dec 2015 12:34:46.440          3556.249
                   4 Dec 2015 13:08:21.670     4 Dec 2015 14:07:38.762          3557.091
                   4 Dec 2015 14:41:13.173     4 Dec 2015 15:40:31.090          3557.918
                   4 Dec 2015 16:14:04.696     4 Dec 2015 17:13:23.428          3558.731
                   4 Dec 2015 17:46:56.242     4 Dec 2015 18:46:15.774          3559.532
                   4 Dec 2015 19:19:47.810     4 Dec 2015 20:19:08.126          3560.316
                   4 Dec 2015 20:52:39.395     4 Dec 2015 21:52:00.488          3561.093
                   4 Dec 2015 22:25:31.007     4 Dec 2015 23:24:52.853          3561.846
                   4 Dec 2015 23:58:22.635     5 Dec 2015 00:57:45.227          3562.592
                   5 Dec 2015 01:31:14.288     5 Dec 2015 02:30:37.606          3563.318
                   5 Dec 2015 03:04:05.957     5 Dec 2015 04:03:29.990          3564.033
                   5 Dec 2015 04:36:57.652     5 Dec 2015 05:36:22.380          3564.728
                   5 Dec 2015 06:09:49.364     5 Dec 2015 07:09:14.774          3565.410
                   5 Dec 2015 07:42:41.095     5 Dec 2015 08:42:07.173          3566.077
                   5 Dec 2015 09:15:32.850     5 Dec 2015 10:14:59.575          3566.725
                   5 Dec 2015 10:48:24.621     5 Dec 2015 11:47:51.982          3567.360
                   5 Dec 2015 12:21:16.414     5 Dec 2015 13:20:44.391          3567.977
                   5 Dec 2015 13:54:08.226     5 Dec 2015 14:53:36.803          3568.576
                   5 Dec 2015 15:27:00.058     5 Dec 2015 16:26:29.218          3569.160
                   5 Dec 2015 16:59:51.909     5 Dec 2015 17:59:21.634          3569.725
                   5 Dec 2015 18:32:43.779     5 Dec 2015 19:32:14.051          3570.272
                   5 Dec 2015 20:05:35.668     5 Dec 2015 21:05:06.470          3570.802
                   5 Dec 2015 21:38:27.575     5 Dec 2015 22:37:58.886          3571.311
                   5 Dec 2015 23:11:19.500     6 Dec 2015 00:10:51.305          3571.805
                   6 Dec 2015 00:44:11.444     6 Dec 2015 01:43:43.727          3572.283
                   6 Dec 2015 02:17:03.402     6 Dec 2015 03:16:36.143          3572.740
                   6 Dec 2015 03:49:55.383     6 Dec 2015 04:49:28.560          3573.176
                   6 Dec 2015 05:22:47.379     6 Dec 2015 06:22:20.978          3573.598
                   6 Dec 2015 06:55:39.390     6 Dec 2015 07:55:13.391          3574.001
                   6 Dec 2015 08:28:31.422     6 Dec 2015 09:28:05.801          3574.378
                   6 Dec 2015 10:01:23.469     6 Dec 2015 11:00:58.209          3574.741
                   6 Dec 2015 11:34:15.529     6 Dec 2015 12:33:50.617          3575.088
                   6 Dec 2015 13:07:07.607     6 Dec 2015 14:06:43.016          3575.409
                   6 Dec 2015 14:39:59.703     6 Dec 2015 15:39:35.416          3575.712
                   6 Dec 2015 16:12:51.811     6 Dec 2015 17:12:27.809          3575.998
                   6 Dec 2015 17:45:43.936     6 Dec 2015 18:45:20.197          3576.261
                   6 Dec 2015 19:18:36.074     6 Dec 2015 20:18:12.578          3576.503
                   6 Dec 2015 20:51:28.228     6 Dec 2015 21:51:04.955          3576.727
                   6 Dec 2015 22:24:20.395     6 Dec 2015 23:23:57.325          3576.930
                   6 Dec 2015 23:57:12.576     7 Dec 2015 00:56:49.690          3577.113
                   7 Dec 2015 01:30:04.771     7 Dec 2015 02:29:42.047          3577.276
                   7 Dec 2015 03:02:56.978     7 Dec 2015 04:02:34.397          3577.419
                   7 Dec 2015 04:35:49.198     7 Dec 2015 05:35:26.739          3577.541
                   7 Dec 2015 06:08:41.430     7 Dec 2015 07:08:19.072          3577.642
                   7 Dec 2015 07:41:33.675     7 Dec 2015 08:41:11.398          3577.723
                   7 Dec 2015 09:14:25.931     7 Dec 2015 10:14:03.714          3577.783
                   7 Dec 2015 10:47:18.198     7 Dec 2015 11:46:56.022          3577.825
                   7 Dec 2015 12:20:10.476     7 Dec 2015 13:19:48.319          3577.844
                   7 Dec 2015 13:53:02.764     7 Dec 2015 14:52:40.606          3577.842
                   7 Dec 2015 15:25:55.062     7 Dec 2015 16:25:32.882          3577.819
                   7 Dec 2015 16:58:47.370     7 Dec 2015 17:58:25.145          3577.774
                   7 Dec 2015 18:31:39.688     7 Dec 2015 19:31:17.399          3577.711
                   7 Dec 2015 20:04:32.014     7 Dec 2015 21:04:09.641          3577.626
                   7 Dec 2015 21:37:24.351     7 Dec 2015 22:37:01.870          3577.519
                   7 Dec 2015 23:10:16.694     8 Dec 2015 00:09:54.090          3577.396
                   8 Dec 2015 00:43:09.042     8 Dec 2015 01:42:46.293          3577.251
                   8 Dec 2015 02:16:01.400     8 Dec 2015 03:15:38.486          3577.087
                   8 Dec 2015 03:48:53.765     8 Dec 2015 04:48:30.662          3576.897
                   8 Dec 2015 05:21:46.135     8 Dec 2015 06:21:22.828          3576.693
                   8 Dec 2015 06:54:38.513     8 Dec 2015 07:54:14.978          3576.465
                   8 Dec 2015 08:27:30.896     8 Dec 2015 09:27:07.111          3576.215
                   8 Dec 2015 10:00:23.284     8 Dec 2015 10:59:59.232          3575.948
                   8 Dec 2015 11:33:15.677     8 Dec 2015 12:32:51.337          3575.660
                   8 Dec 2015 13:06:08.074     8 Dec 2015 14:05:43.429          3575.355
                   8 Dec 2015 14:39:00.475     8 Dec 2015 15:38:35.501          3575.026
                   8 Dec 2015 16:11:52.880     8 Dec 2015 17:11:27.559          3574.679
                   8 Dec 2015 17:44:45.288     8 Dec 2015 18:44:19.603          3574.316
                   8 Dec 2015 19:17:37.699     8 Dec 2015 20:17:11.626          3573.927
                   8 Dec 2015 20:50:30.112     8 Dec 2015 21:50:03.634          3573.522
                   8 Dec 2015 22:23:22.524     8 Dec 2015 23:22:55.625          3573.101
                   8 Dec 2015 23:56:14.942     9 Dec 2015 00:55:47.601          3572.659
                   9 Dec 2015 01:29:07.358     9 Dec 2015 02:28:39.556          3572.198
                   9 Dec 2015 03:01:59.773     9 Dec 2015 04:01:31.494          3571.721
                   9 Dec 2015 04:34:52.191     9 Dec 2015 05:34:23.413          3571.223
                   9 Dec 2015 06:07:44.607     9 Dec 2015 07:07:15.314          3570.706
                   9 Dec 2015 07:40:37.026     9 Dec 2015 08:40:07.195          3570.169
                   9 Dec 2015 09:13:29.440     9 Dec 2015 10:12:59.058          3569.617
                   9 Dec 2015 10:46:21.852     9 Dec 2015 11:45:50.904          3569.052
                   9 Dec 2015 12:19:14.265     9 Dec 2015 13:18:42.725          3568.460
                   9 Dec 2015 13:52:06.671     9 Dec 2015 14:51:34.533          3567.862
                   9 Dec 2015 15:24:59.080     9 Dec 2015 16:24:26.318          3567.238
                   9 Dec 2015 16:57:51.483     9 Dec 2015 17:57:18.083          3566.601
                   9 Dec 2015 18:30:43.879     9 Dec 2015 19:30:09.827          3565.948
                   9 Dec 2015 20:03:36.274     9 Dec 2015 21:03:01.551          3565.278
                   9 Dec 2015 21:36:28.665     9 Dec 2015 22:35:53.256          3564.591
                   9 Dec 2015 23:09:21.050    10 Dec 2015 00:08:44.939          3563.889
                  10 Dec 2015 00:42:13.430    10 Dec 2015 01:41:36.602          3563.171
                  10 Dec 2015 02:15:05.804    10 Dec 2015 03:14:28.243          3562.439
                  10 Dec 2015 03:47:58.173    10 Dec 2015 04:47:19.864          3561.691
                  10 Dec 2015 05:20:50.534    10 Dec 2015 06:20:11.463          3560.929
                  10 Dec 2015 06:53:42.889    10 Dec 2015 07:53:03.040          3560.152
                  10 Dec 2015 08:26:35.236    10 Dec 2015 09:25:54.597          3559.360
                  10 Dec 2015 09:59:27.576    10 Dec 2015 10:58:46.131          3558.555
                  10 Dec 2015 11:32:19.908    10 Dec 2015 12:31:37.644          3557.736
                  10 Dec 2015 13:05:12.232    10 Dec 2015 14:04:29.135          3556.903
                  10 Dec 2015 14:38:04.546    10 Dec 2015 15:37:20.604          3556.057
                  10 Dec 2015 16:10:56.851    10 Dec 2015 17:10:12.052          3555.200
                  10 Dec 2015 17:43:49.146    10 Dec 2015 18:00:00.000           970.854

Global Statistics
-----------------
Min Duration       3 Dec 2015 18:00:00.000     3 Dec 2015 18:00:19.378            19.378
Max Duration       7 Dec 2015 12:20:10.476     7 Dec 2015 13:19:48.319          3577.844
Mean Duration                                                                   3512.269
Total Duration                                                                386349.601


Penumbra Times
--------------
                      Start Time (UTCG)           Stop Time (UTCG)        Duration (sec)
                  ------------------------    ------------------------    --------------
                   3 Dec 2015 18:00:19.378     3 Dec 2015 18:00:29.956            10.578
                   3 Dec 2015 18:33:54.633     3 Dec 2015 18:34:05.354            10.721
                   3 Dec 2015 19:33:11.570     3 Dec 2015 19:33:22.166            10.595
                   3 Dec 2015 20:06:45.855     3 Dec 2015 20:06:56.592            10.737
                   3 Dec 2015 21:06:03.775     3 Dec 2015 21:06:14.388            10.613
                   3 Dec 2015 21:39:37.098     3 Dec 2015 21:39:47.851            10.753
                   3 Dec 2015 22:38:55.992     3 Dec 2015 22:39:06.619            10.628
                   3 Dec 2015 23:12:28.366     3 Dec 2015 23:12:39.136            10.770
                   4 Dec 2015 00:11:48.221     4 Dec 2015 00:11:58.868            10.647
                   4 Dec 2015 00:45:19.655     4 Dec 2015 00:45:30.441            10.786
                   4 Dec 2015 01:44:40.459     4 Dec 2015 01:44:51.122            10.664
                   4 Dec 2015 02:18:10.968     4 Dec 2015 02:18:21.768            10.800
                   4 Dec 2015 03:17:32.712     4 Dec 2015 03:17:43.393            10.681
                   4 Dec 2015 03:51:02.299     4 Dec 2015 03:51:13.117            10.818
                   4 Dec 2015 04:50:24.975     4 Dec 2015 04:50:35.672            10.697
                   4 Dec 2015 05:23:53.657     4 Dec 2015 05:24:04.488            10.831
                   4 Dec 2015 06:23:17.248     4 Dec 2015 06:23:27.962            10.714
                   4 Dec 2015 06:56:45.035     4 Dec 2015 06:56:55.881            10.846
                   4 Dec 2015 07:56:09.532     4 Dec 2015 07:56:20.259            10.728
                   4 Dec 2015 08:29:36.436     4 Dec 2015 08:29:47.296            10.860
                   4 Dec 2015 09:29:01.825     4 Dec 2015 09:29:12.569            10.744
                   4 Dec 2015 10:02:27.858     4 Dec 2015 10:02:38.733            10.875
                   4 Dec 2015 11:01:54.126     4 Dec 2015 11:02:04.888            10.762
                   4 Dec 2015 11:35:19.303     4 Dec 2015 11:35:30.192            10.889
                   4 Dec 2015 12:34:46.440     4 Dec 2015 12:34:57.217            10.776
                   4 Dec 2015 13:08:10.769     4 Dec 2015 13:08:21.670            10.901
                   4 Dec 2015 14:07:38.762     4 Dec 2015 14:07:49.553            10.792
                   4 Dec 2015 14:41:02.256     4 Dec 2015 14:41:13.173            10.917
                   4 Dec 2015 15:40:31.090     4 Dec 2015 15:40:41.898            10.808
                   4 Dec 2015 16:13:53.766     4 Dec 2015 16:14:04.696            10.930
                   4 Dec 2015 17:13:23.428     4 Dec 2015 17:13:34.251            10.823
                   4 Dec 2015 17:46:45.298     4 Dec 2015 17:46:56.242            10.944
                   4 Dec 2015 18:46:15.774     4 Dec 2015 18:46:26.611            10.837
                   4 Dec 2015 19:19:36.853     4 Dec 2015 19:19:47.810            10.957
                   4 Dec 2015 20:19:08.126     4 Dec 2015 20:19:18.981            10.855
                   4 Dec 2015 20:52:28.429     4 Dec 2015 20:52:39.395            10.967
                   4 Dec 2015 21:52:00.488     4 Dec 2015 21:52:11.356            10.868
                   4 Dec 2015 22:25:20.025     4 Dec 2015 22:25:31.007            10.982
                   4 Dec 2015 23:24:52.853     4 Dec 2015 23:25:03.735            10.882
                   4 Dec 2015 23:58:11.641     4 Dec 2015 23:58:22.635            10.994
                   5 Dec 2015 00:57:45.227     5 Dec 2015 00:57:56.122            10.896
                   5 Dec 2015 01:31:03.282     5 Dec 2015 01:31:14.288            11.006
                   5 Dec 2015 02:30:37.606     5 Dec 2015 02:30:48.515            10.909
                   5 Dec 2015 03:03:54.941     5 Dec 2015 03:04:05.957            11.016
                   5 Dec 2015 04:03:29.990     5 Dec 2015 04:03:40.913            10.923
                   5 Dec 2015 04:36:46.620     5 Dec 2015 04:36:57.652            11.032
                   5 Dec 2015 05:36:22.380     5 Dec 2015 05:36:33.316            10.936
                   5 Dec 2015 06:09:38.322     5 Dec 2015 06:09:49.364            11.042
                   5 Dec 2015 07:09:14.774     5 Dec 2015 07:09:25.723            10.949
                   5 Dec 2015 07:42:30.044     5 Dec 2015 07:42:41.095            11.052
                   5 Dec 2015 08:42:07.173     5 Dec 2015 08:42:18.135            10.962
                   5 Dec 2015 09:15:21.786     5 Dec 2015 09:15:32.850            11.064
                   5 Dec 2015 10:14:59.575     5 Dec 2015 10:15:10.550            10.975
                   5 Dec 2015 10:48:13.549     5 Dec 2015 10:48:24.621            11.073
                   5 Dec 2015 11:47:51.982     5 Dec 2015 11:48:02.968            10.987
                   5 Dec 2015 12:21:05.331     5 Dec 2015 12:21:16.414            11.083
                   5 Dec 2015 13:20:44.391     5 Dec 2015 13:20:55.391            11.000
                   5 Dec 2015 13:53:57.134     5 Dec 2015 13:54:08.226            11.092
                   5 Dec 2015 14:53:36.803     5 Dec 2015 14:53:47.814            11.012
                   5 Dec 2015 15:26:48.956     5 Dec 2015 15:27:00.058            11.102
                   5 Dec 2015 16:26:29.218     5 Dec 2015 16:26:40.240            11.022
                   5 Dec 2015 16:59:40.798     5 Dec 2015 16:59:51.909            11.111
                   5 Dec 2015 17:59:21.634     5 Dec 2015 17:59:32.667            11.033
                   5 Dec 2015 18:32:32.659     5 Dec 2015 18:32:43.779            11.121
                   5 Dec 2015 19:32:14.051     5 Dec 2015 19:32:25.093            11.041
                   5 Dec 2015 20:05:24.540     5 Dec 2015 20:05:35.668            11.128
                   5 Dec 2015 21:05:06.470     5 Dec 2015 21:05:17.522            11.052
                   5 Dec 2015 21:38:16.439     5 Dec 2015 21:38:27.575            11.136
                   5 Dec 2015 22:37:58.886     5 Dec 2015 22:38:09.951            11.065
                   5 Dec 2015 23:11:08.356     5 Dec 2015 23:11:19.500            11.144
                   6 Dec 2015 00:10:51.305     6 Dec 2015 00:11:02.380            11.075
                   6 Dec 2015 00:44:00.290     6 Dec 2015 00:44:11.444            11.154
                   6 Dec 2015 01:43:43.727     6 Dec 2015 01:43:54.809            11.082
                   6 Dec 2015 02:16:52.244     6 Dec 2015 02:17:03.402            11.159
                   6 Dec 2015 03:16:36.143     6 Dec 2015 03:16:47.236            11.094
                   6 Dec 2015 03:49:44.218     6 Dec 2015 03:49:55.383            11.165
                   6 Dec 2015 04:49:28.560     6 Dec 2015 04:49:39.665            11.105
                   6 Dec 2015 05:22:36.205     6 Dec 2015 05:22:47.379            11.174
                   6 Dec 2015 06:22:20.978     6 Dec 2015 06:22:32.089            11.111
                   6 Dec 2015 06:55:28.214     6 Dec 2015 06:55:39.390            11.176
                   6 Dec 2015 07:55:13.391     6 Dec 2015 07:55:24.511            11.120
                   6 Dec 2015 08:28:20.238     6 Dec 2015 08:28:31.422            11.184
                   6 Dec 2015 09:28:05.801     6 Dec 2015 09:28:16.928            11.128
                   6 Dec 2015 10:01:12.279     6 Dec 2015 10:01:23.469            11.189
                   6 Dec 2015 11:00:58.209     6 Dec 2015 11:01:09.347            11.138
                   6 Dec 2015 11:34:04.337     6 Dec 2015 11:34:15.529            11.192
                   6 Dec 2015 12:33:50.617     6 Dec 2015 12:34:01.757            11.141
                   6 Dec 2015 13:06:56.410     6 Dec 2015 13:07:07.607            11.197
                   6 Dec 2015 14:06:43.016     6 Dec 2015 14:06:54.168            11.152
                   6 Dec 2015 14:39:48.500     6 Dec 2015 14:39:59.703            11.204
                   6 Dec 2015 15:39:35.416     6 Dec 2015 15:39:46.570            11.155
                   6 Dec 2015 16:12:40.603     6 Dec 2015 16:12:51.811            11.208
                   6 Dec 2015 17:12:27.809     6 Dec 2015 17:12:38.972            11.163
                   6 Dec 2015 17:45:32.723     6 Dec 2015 17:45:43.936            11.212
                   6 Dec 2015 18:45:20.197     6 Dec 2015 18:45:31.366            11.169
                   6 Dec 2015 19:18:24.861     6 Dec 2015 19:18:36.074            11.213
                   6 Dec 2015 20:18:12.578     6 Dec 2015 20:18:23.753            11.175
                   6 Dec 2015 20:51:17.012     6 Dec 2015 20:51:28.228            11.216
                   6 Dec 2015 21:51:04.955     6 Dec 2015 21:51:16.137            11.183
                   6 Dec 2015 22:24:09.175     6 Dec 2015 22:24:20.395            11.221
                   6 Dec 2015 23:23:57.325     6 Dec 2015 23:24:08.511            11.185
                   6 Dec 2015 23:57:01.354     6 Dec 2015 23:57:12.576            11.222
                   7 Dec 2015 00:56:49.690     7 Dec 2015 00:57:00.880            11.190
                   7 Dec 2015 01:29:53.546     7 Dec 2015 01:30:04.771            11.224
                   7 Dec 2015 02:29:42.047     7 Dec 2015 02:29:53.243            11.196
                   7 Dec 2015 03:02:45.752     7 Dec 2015 03:02:56.978            11.226
                   7 Dec 2015 04:02:34.397     7 Dec 2015 04:02:45.595            11.198
                   7 Dec 2015 04:35:37.971     7 Dec 2015 04:35:49.198            11.227
                   7 Dec 2015 05:35:26.739     7 Dec 2015 05:35:37.941            11.202
                   7 Dec 2015 06:08:30.203     7 Dec 2015 06:08:41.430            11.228
                   7 Dec 2015 07:08:19.072     7 Dec 2015 07:08:30.280            11.207
                   7 Dec 2015 07:41:22.447     7 Dec 2015 07:41:33.675            11.228
                   7 Dec 2015 08:41:11.398     7 Dec 2015 08:41:22.606            11.208
                   7 Dec 2015 09:14:14.703     7 Dec 2015 09:14:25.931            11.228
                   7 Dec 2015 10:14:03.714     7 Dec 2015 10:14:14.926            11.213
                   7 Dec 2015 10:47:06.970     7 Dec 2015 10:47:18.198            11.228
                   7 Dec 2015 11:46:56.022     7 Dec 2015 11:47:07.233            11.211
                   7 Dec 2015 12:19:59.249     7 Dec 2015 12:20:10.476            11.227
                   7 Dec 2015 13:19:48.319     7 Dec 2015 13:19:59.532            11.213
                   7 Dec 2015 13:52:51.538     7 Dec 2015 13:53:02.764            11.226
                   7 Dec 2015 14:52:40.606     7 Dec 2015 14:52:51.822            11.216
                   7 Dec 2015 15:25:43.838     7 Dec 2015 15:25:55.062            11.224
                   7 Dec 2015 16:25:32.882     7 Dec 2015 16:25:44.099            11.217
                   7 Dec 2015 16:58:36.148     7 Dec 2015 16:58:47.370            11.223
                   7 Dec 2015 17:58:25.145     7 Dec 2015 17:58:36.365            11.220
                   7 Dec 2015 18:31:28.467     7 Dec 2015 18:31:39.688            11.221
                   7 Dec 2015 19:31:17.399     7 Dec 2015 19:31:28.617            11.218
                   7 Dec 2015 20:04:20.796     7 Dec 2015 20:04:32.014            11.218
                   7 Dec 2015 21:04:09.641     7 Dec 2015 21:04:20.859            11.218
                   7 Dec 2015 21:37:13.134     7 Dec 2015 21:37:24.351            11.217
                   7 Dec 2015 22:37:01.870     7 Dec 2015 22:37:13.088            11.218
                   7 Dec 2015 23:10:05.480     7 Dec 2015 23:10:16.694            11.214
                   8 Dec 2015 00:09:54.090     8 Dec 2015 00:10:05.305            11.215
                   8 Dec 2015 00:42:57.834     8 Dec 2015 00:43:09.042            11.207
                   8 Dec 2015 01:42:46.293     8 Dec 2015 01:42:57.508            11.216
                   8 Dec 2015 02:15:50.198     8 Dec 2015 02:16:01.400            11.202
                   8 Dec 2015 03:15:38.486     8 Dec 2015 03:15:49.700            11.214
                   8 Dec 2015 03:48:42.565     8 Dec 2015 03:48:53.765            11.200
                   8 Dec 2015 04:48:30.662     8 Dec 2015 04:48:41.876            11.215
                   8 Dec 2015 05:21:34.941     8 Dec 2015 05:21:46.135            11.194
                   8 Dec 2015 06:21:22.828     8 Dec 2015 06:21:34.036            11.208
                   8 Dec 2015 06:54:27.323     8 Dec 2015 06:54:38.513            11.190
                   8 Dec 2015 07:54:14.978     8 Dec 2015 07:54:26.186            11.208
                   8 Dec 2015 08:27:19.713     8 Dec 2015 08:27:30.896            11.183
                   8 Dec 2015 09:27:07.111     8 Dec 2015 09:27:18.316            11.205
                   8 Dec 2015 10:00:12.105     8 Dec 2015 10:00:23.284            11.179
                   8 Dec 2015 10:59:59.232     8 Dec 2015 11:00:10.433            11.201
                   8 Dec 2015 11:33:04.504     8 Dec 2015 11:33:15.677            11.173
                   8 Dec 2015 12:32:51.337     8 Dec 2015 12:33:02.535            11.198
                   8 Dec 2015 13:05:56.908     8 Dec 2015 13:06:08.074            11.167
                   8 Dec 2015 14:05:43.429     8 Dec 2015 14:05:54.621            11.192
                   8 Dec 2015 14:38:49.316     8 Dec 2015 14:39:00.475            11.160
                   8 Dec 2015 15:38:35.501     8 Dec 2015 15:38:46.691            11.189
                   8 Dec 2015 16:11:41.727     8 Dec 2015 16:11:52.880            11.153
                   8 Dec 2015 17:11:27.559     8 Dec 2015 17:11:38.746            11.187
                   8 Dec 2015 17:44:34.142     8 Dec 2015 17:44:45.288            11.145
                   8 Dec 2015 18:44:19.603     8 Dec 2015 18:44:30.781            11.177
                   8 Dec 2015 19:17:26.561     8 Dec 2015 19:17:37.699            11.139
                   8 Dec 2015 20:17:11.626     8 Dec 2015 20:17:22.803            11.177
                   8 Dec 2015 20:50:18.982     8 Dec 2015 20:50:30.112            11.129
                   8 Dec 2015 21:50:03.634     8 Dec 2015 21:50:14.802            11.168
                   8 Dec 2015 22:23:11.405     8 Dec 2015 22:23:22.524            11.118
                   8 Dec 2015 23:22:55.625     8 Dec 2015 23:23:06.790            11.165
                   8 Dec 2015 23:56:03.827     8 Dec 2015 23:56:14.942            11.114
                   9 Dec 2015 00:55:47.601     9 Dec 2015 00:55:58.757            11.156
                   9 Dec 2015 01:28:56.255     9 Dec 2015 01:29:07.358            11.103
                   9 Dec 2015 02:28:39.556     9 Dec 2015 02:28:50.705            11.149
                   9 Dec 2015 03:01:48.682     9 Dec 2015 03:01:59.773            11.091
                   9 Dec 2015 04:01:31.494     9 Dec 2015 04:01:42.636            11.142
                   9 Dec 2015 04:34:41.109     9 Dec 2015 04:34:52.191            11.082
                   9 Dec 2015 05:34:23.413     9 Dec 2015 05:34:34.547            11.134
                   9 Dec 2015 06:07:33.533     9 Dec 2015 06:07:44.607            11.074
                   9 Dec 2015 07:07:15.314     9 Dec 2015 07:07:26.440            11.126
                   9 Dec 2015 07:40:25.962     9 Dec 2015 07:40:37.026            11.064
                   9 Dec 2015 08:40:07.195     9 Dec 2015 08:40:18.316            11.121
                   9 Dec 2015 09:13:18.388     9 Dec 2015 09:13:29.440            11.053
                   9 Dec 2015 10:12:59.058     9 Dec 2015 10:13:10.170            11.112
                   9 Dec 2015 10:46:10.810     9 Dec 2015 10:46:21.852            11.042
                   9 Dec 2015 11:45:50.904     9 Dec 2015 11:46:02.005            11.101
                   9 Dec 2015 12:19:03.234     9 Dec 2015 12:19:14.265            11.031
                   9 Dec 2015 13:18:42.725     9 Dec 2015 13:18:53.819            11.094
                   9 Dec 2015 13:51:55.654     9 Dec 2015 13:52:06.671            11.017
                   9 Dec 2015 14:51:34.533     9 Dec 2015 14:51:45.615            11.082
                   9 Dec 2015 15:24:48.071     9 Dec 2015 15:24:59.080            11.009
                   9 Dec 2015 16:24:26.318     9 Dec 2015 16:24:37.390            11.072
                   9 Dec 2015 16:57:40.485     9 Dec 2015 16:57:51.483            10.997
                   9 Dec 2015 17:57:18.083     9 Dec 2015 17:57:29.146            11.062
                   9 Dec 2015 18:30:32.896     9 Dec 2015 18:30:43.879            10.983
                   9 Dec 2015 19:30:09.827     9 Dec 2015 19:30:20.880            11.054
                   9 Dec 2015 20:03:25.304     9 Dec 2015 20:03:36.274            10.970
                   9 Dec 2015 21:03:01.551     9 Dec 2015 21:03:12.595            11.043
                   9 Dec 2015 21:36:17.707     9 Dec 2015 21:36:28.665            10.958
                   9 Dec 2015 22:35:53.256     9 Dec 2015 22:36:04.288            11.032
                   9 Dec 2015 23:09:10.105     9 Dec 2015 23:09:21.050            10.945
                  10 Dec 2015 00:08:44.939    10 Dec 2015 00:08:55.960            11.021
                  10 Dec 2015 00:42:02.499    10 Dec 2015 00:42:13.430            10.932
                  10 Dec 2015 01:41:36.602    10 Dec 2015 01:41:47.611            11.010
                  10 Dec 2015 02:14:54.886    10 Dec 2015 02:15:05.804            10.918
                  10 Dec 2015 03:14:28.243    10 Dec 2015 03:14:39.241            10.998
                  10 Dec 2015 03:47:47.268    10 Dec 2015 03:47:58.173            10.904
                  10 Dec 2015 04:47:19.864    10 Dec 2015 04:47:30.850            10.986
                  10 Dec 2015 05:20:39.644    10 Dec 2015 05:20:50.534            10.890
                  10 Dec 2015 06:20:11.463    10 Dec 2015 06:20:22.437            10.974
                  10 Dec 2015 06:53:32.013    10 Dec 2015 06:53:42.889            10.876
                  10 Dec 2015 07:53:03.040    10 Dec 2015 07:53:14.002            10.962
                  10 Dec 2015 08:26:24.375    10 Dec 2015 08:26:35.236            10.861
                  10 Dec 2015 09:25:54.597    10 Dec 2015 09:26:05.545            10.949
                  10 Dec 2015 09:59:16.729    10 Dec 2015 09:59:27.576            10.847
                  10 Dec 2015 10:58:46.131    10 Dec 2015 10:58:57.067            10.936
                  10 Dec 2015 11:32:09.076    10 Dec 2015 11:32:19.908            10.832
                  10 Dec 2015 12:31:37.644    10 Dec 2015 12:31:48.568            10.924
                  10 Dec 2015 13:05:01.415    10 Dec 2015 13:05:12.232            10.817
                  10 Dec 2015 14:04:29.135    10 Dec 2015 14:04:40.045            10.910
                  10 Dec 2015 14:37:53.745    10 Dec 2015 14:38:04.546            10.801
                  10 Dec 2015 15:37:20.604    10 Dec 2015 15:37:31.500            10.897
                  10 Dec 2015 16:10:46.066    10 Dec 2015 16:10:56.851            10.786
                  10 Dec 2015 17:10:12.052    10 Dec 2015 17:10:22.933            10.882
                  10 Dec 2015 17:43:38.377    10 Dec 2015 17:43:49.146            10.769

Global Statistics
-----------------
Min Duration       3 Dec 2015 18:00:19.378     3 Dec 2015 18:00:29.956            10.578
Max Duration       7 Dec 2015 09:14:14.703     7 Dec 2015 09:14:25.931            11.228
Mean Duration                                                                     11.046
Total Duration                                                                  2408.062


Umbra Times
-----------
                      Start Time (UTCG)           Stop Time (UTCG)        Duration (sec)
                  ------------------------    ------------------------    --------------
                   3 Dec 2015 18:00:29.956     3 Dec 2015 18:33:54.633          2004.677
                   3 Dec 2015 19:33:22.166     3 Dec 2015 20:06:45.855          2003.689
                   3 Dec 2015 21:06:14.388     3 Dec 2015 21:39:37.098          2002.710
                   3 Dec 2015 22:39:06.619     3 Dec 2015 23:12:28.366          2001.746
                   4 Dec 2015 00:11:58.868     4 Dec 2015 00:45:19.655          2000.787
                   4 Dec 2015 01:44:51.122     4 Dec 2015 02:18:10.968          1999.845
                   4 Dec 2015 03:17:43.393     4 Dec 2015 03:51:02.299          1998.906
                   4 Dec 2015 04:50:35.672     4 Dec 2015 05:23:53.657          1997.985
                   4 Dec 2015 06:23:27.962     4 Dec 2015 06:56:45.035          1997.074
                   4 Dec 2015 07:56:20.259     4 Dec 2015 08:29:36.436          1996.177
                   4 Dec 2015 09:29:12.569     4 Dec 2015 10:02:27.858          1995.290
                   4 Dec 2015 11:02:04.888     4 Dec 2015 11:35:19.303          1994.415
                   4 Dec 2015 12:34:57.217     4 Dec 2015 13:08:10.769          1993.553
                   4 Dec 2015 14:07:49.553     4 Dec 2015 14:41:02.256          1992.702
                   4 Dec 2015 15:40:41.898     4 Dec 2015 16:13:53.766          1991.868
                   4 Dec 2015 17:13:34.251     4 Dec 2015 17:46:45.298          1991.047
                   4 Dec 2015 18:46:26.611     4 Dec 2015 19:19:36.853          1990.242
                   4 Dec 2015 20:19:18.981     4 Dec 2015 20:52:28.429          1989.448
                   4 Dec 2015 21:52:11.356     4 Dec 2015 22:25:20.025          1988.669
                   4 Dec 2015 23:25:03.735     4 Dec 2015 23:58:11.641          1987.906
                   5 Dec 2015 00:57:56.122     5 Dec 2015 01:31:03.282          1987.159
                   5 Dec 2015 02:30:48.515     5 Dec 2015 03:03:54.941          1986.426
                   5 Dec 2015 04:03:40.913     5 Dec 2015 04:36:46.620          1985.706
                   5 Dec 2015 05:36:33.316     5 Dec 2015 06:09:38.322          1985.006
                   5 Dec 2015 07:09:25.723     5 Dec 2015 07:42:30.044          1984.320
                   5 Dec 2015 08:42:18.135     5 Dec 2015 09:15:21.786          1983.651
                   5 Dec 2015 10:15:10.550     5 Dec 2015 10:48:13.549          1982.999
                   5 Dec 2015 11:48:02.968     5 Dec 2015 12:21:05.331          1982.363
                   5 Dec 2015 13:20:55.391     5 Dec 2015 13:53:57.134          1981.743
                   5 Dec 2015 14:53:47.814     5 Dec 2015 15:26:48.956          1981.142
                   5 Dec 2015 16:26:40.240     5 Dec 2015 16:59:40.798          1980.558
                   5 Dec 2015 17:59:32.667     5 Dec 2015 18:32:32.659          1979.992
                   5 Dec 2015 19:32:25.093     5 Dec 2015 20:05:24.540          1979.447
                   5 Dec 2015 21:05:17.522     5 Dec 2015 21:38:16.439          1978.917
                   5 Dec 2015 22:38:09.951     5 Dec 2015 23:11:08.356          1978.405
                   6 Dec 2015 00:11:02.380     6 Dec 2015 00:44:00.290          1977.910
                   6 Dec 2015 01:43:54.809     6 Dec 2015 02:16:52.244          1977.435
                   6 Dec 2015 03:16:47.236     6 Dec 2015 03:49:44.218          1976.982
                   6 Dec 2015 04:49:39.665     6 Dec 2015 05:22:36.205          1976.540
                   6 Dec 2015 06:22:32.089     6 Dec 2015 06:55:28.214          1976.125
                   6 Dec 2015 07:55:24.511     6 Dec 2015 08:28:20.238          1975.727
                   6 Dec 2015 09:28:16.928     6 Dec 2015 10:01:12.279          1975.351
                   6 Dec 2015 11:01:09.347     6 Dec 2015 11:34:04.337          1974.990
                   6 Dec 2015 12:34:01.757     6 Dec 2015 13:06:56.410          1974.653
                   6 Dec 2015 14:06:54.168     6 Dec 2015 14:39:48.500          1974.332
                   6 Dec 2015 15:39:46.570     6 Dec 2015 16:12:40.603          1974.033
                   6 Dec 2015 17:12:38.972     6 Dec 2015 17:45:32.723          1973.751
                   6 Dec 2015 18:45:31.366     6 Dec 2015 19:18:24.861          1973.495
                   6 Dec 2015 20:18:23.753     6 Dec 2015 20:51:17.012          1973.259
                   6 Dec 2015 21:51:16.137     6 Dec 2015 22:24:09.175          1973.038
                   6 Dec 2015 23:24:08.511     6 Dec 2015 23:57:01.354          1972.843
                   7 Dec 2015 00:57:00.880     7 Dec 2015 01:29:53.546          1972.667
                   7 Dec 2015 02:29:53.243     7 Dec 2015 03:02:45.752          1972.509
                   7 Dec 2015 04:02:45.595     7 Dec 2015 04:35:37.971          1972.376
                   7 Dec 2015 05:35:37.941     7 Dec 2015 06:08:30.203          1972.262
                   7 Dec 2015 07:08:30.280     7 Dec 2015 07:41:22.447          1972.167
                   7 Dec 2015 08:41:22.606     7 Dec 2015 09:14:14.703          1972.097
                   7 Dec 2015 10:14:14.926     7 Dec 2015 10:47:06.970          1972.044
                   7 Dec 2015 11:47:07.233     7 Dec 2015 12:19:59.249          1972.015
                   7 Dec 2015 13:19:59.532     7 Dec 2015 13:52:51.538          1972.006
                   7 Dec 2015 14:52:51.822     7 Dec 2015 15:25:43.838          1972.016
                   7 Dec 2015 16:25:44.099     7 Dec 2015 16:58:36.148          1972.049
                   7 Dec 2015 17:58:36.365     7 Dec 2015 18:31:28.467          1972.103
                   7 Dec 2015 19:31:28.617     7 Dec 2015 20:04:20.796          1972.180
                   7 Dec 2015 21:04:20.859     7 Dec 2015 21:37:13.134          1972.275
                   7 Dec 2015 22:37:13.088     7 Dec 2015 23:10:05.480          1972.392
                   8 Dec 2015 00:10:05.305     8 Dec 2015 00:42:57.834          1972.529
                   8 Dec 2015 01:42:57.508     8 Dec 2015 02:15:50.198          1972.689
                   8 Dec 2015 03:15:49.700     8 Dec 2015 03:48:42.565          1972.865
                   8 Dec 2015 04:48:41.876     8 Dec 2015 05:21:34.941          1973.065
                   8 Dec 2015 06:21:34.036     8 Dec 2015 06:54:27.323          1973.287
                   8 Dec 2015 07:54:26.186     8 Dec 2015 08:27:19.713          1973.527
                   8 Dec 2015 09:27:18.316     8 Dec 2015 10:00:12.105          1973.789
                   8 Dec 2015 11:00:10.433     8 Dec 2015 11:33:04.504          1974.071
                   8 Dec 2015 12:33:02.535     8 Dec 2015 13:05:56.908          1974.373
                   8 Dec 2015 14:05:54.621     8 Dec 2015 14:38:49.316          1974.695
                   8 Dec 2015 15:38:46.691     8 Dec 2015 16:11:41.727          1975.037
                   8 Dec 2015 17:11:38.746     8 Dec 2015 17:44:34.142          1975.396
                   8 Dec 2015 18:44:30.781     8 Dec 2015 19:17:26.561          1975.780
                   8 Dec 2015 20:17:22.803     8 Dec 2015 20:50:18.982          1976.180
                   8 Dec 2015 21:50:14.802     8 Dec 2015 22:23:11.405          1976.603
                   8 Dec 2015 23:23:06.790     8 Dec 2015 23:56:03.827          1977.038
                   9 Dec 2015 00:55:58.757     9 Dec 2015 01:28:56.255          1977.499
                   9 Dec 2015 02:28:50.705     9 Dec 2015 03:01:48.682          1977.976
                   9 Dec 2015 04:01:42.636     9 Dec 2015 04:34:41.109          1978.473
                   9 Dec 2015 05:34:34.547     9 Dec 2015 06:07:33.533          1978.987
                   9 Dec 2015 07:07:26.440     9 Dec 2015 07:40:25.962          1979.522
                   9 Dec 2015 08:40:18.316     9 Dec 2015 09:13:18.388          1980.072
                   9 Dec 2015 10:13:10.170     9 Dec 2015 10:46:10.810          1980.640
                   9 Dec 2015 11:46:02.005     9 Dec 2015 12:19:03.234          1981.229
                   9 Dec 2015 13:18:53.819     9 Dec 2015 13:51:55.654          1981.835
                   9 Dec 2015 14:51:45.615     9 Dec 2015 15:24:48.071          1982.456
                   9 Dec 2015 16:24:37.390     9 Dec 2015 16:57:40.485          1983.095
                   9 Dec 2015 17:57:29.146     9 Dec 2015 18:30:32.896          1983.751
                   9 Dec 2015 19:30:20.880     9 Dec 2015 20:03:25.304          1984.423
                   9 Dec 2015 21:03:12.595     9 Dec 2015 21:36:17.707          1985.112
                   9 Dec 2015 22:36:04.288     9 Dec 2015 23:09:10.105          1985.817
                  10 Dec 2015 00:08:55.960    10 Dec 2015 00:42:02.499          1986.538
                  10 Dec 2015 01:41:47.611    10 Dec 2015 02:14:54.886          1987.275
                  10 Dec 2015 03:14:39.241    10 Dec 2015 03:47:47.268          1988.027
                  10 Dec 2015 04:47:30.850    10 Dec 2015 05:20:39.644          1988.794
                  10 Dec 2015 06:20:22.437    10 Dec 2015 06:53:32.013          1989.576
                  10 Dec 2015 07:53:14.002    10 Dec 2015 08:26:24.375          1990.373
                  10 Dec 2015 09:26:05.545    10 Dec 2015 09:59:16.729          1991.184
                  10 Dec 2015 10:58:57.067    10 Dec 2015 11:32:09.076          1992.009
                  10 Dec 2015 12:31:48.568    10 Dec 2015 13:05:01.415          1992.848
                  10 Dec 2015 14:04:40.045    10 Dec 2015 14:37:53.745          1993.700
                  10 Dec 2015 15:37:31.500    10 Dec 2015 16:10:46.066          1994.565
                  10 Dec 2015 17:10:22.933    10 Dec 2015 17:43:38.377          1995.444

Global Statistics
-----------------
Min Duration       7 Dec 2015 13:19:59.532     7 Dec 2015 13:52:51.538          1972.006
Max Duration       3 Dec 2015 18:00:29.956     3 Dec 2015 18:33:54.633          2004.677
Mean Duration                                                                   1982.040
Total Duration                                                                216042.338
