Documents/CubeSat_Sub-Systems/Power/Data/Smallest light tiems summer.txt

                                                                    08 Dec 2015 18:37:25
Satellite-CubeSat:  Lighting


Sunlight Times
--------------
                      Start Time (UTCG)           Stop Time (UTCG)        Duration (sec)
                  ------------------------    ------------------------    --------------
                  17 Jun 2015 18:23:50.594    17 Jun 2015 19:20:51.617          3421.023
                  17 Jun 2015 19:56:40.221    17 Jun 2015 20:53:40.674          3420.453
                  17 Jun 2015 21:29:29.830    17 Jun 2015 22:26:29.726          3419.896
                  17 Jun 2015 23:02:19.424    17 Jun 2015 23:59:18.770          3419.347
                  18 Jun 2015 00:35:08.998    18 Jun 2015 01:32:07.806          3418.808
                  18 Jun 2015 02:07:58.555    18 Jun 2015 03:04:56.834          3418.279
                  18 Jun 2015 03:40:48.094    18 Jun 2015 04:37:45.854          3417.760
                  18 Jun 2015 05:13:37.617    18 Jun 2015 06:10:34.867          3417.250
                  18 Jun 2015 06:46:27.122    18 Jun 2015 07:43:23.873          3416.751
                  18 Jun 2015 08:19:16.610    18 Jun 2015 09:16:12.872          3416.262
                  18 Jun 2015 09:52:06.081    18 Jun 2015 10:49:01.864          3415.783
                  18 Jun 2015 11:24:55.536    18 Jun 2015 12:21:50.851          3415.315
                  18 Jun 2015 12:57:44.974    18 Jun 2015 13:54:39.829          3414.855
                  18 Jun 2015 14:30:34.394    18 Jun 2015 15:27:28.801          3414.407
                  18 Jun 2015 16:03:23.798    18 Jun 2015 17:00:17.766          3413.968
                  18 Jun 2015 17:36:13.185    18 Jun 2015 18:33:06.725          3413.540
                  18 Jun 2015 19:09:02.555    18 Jun 2015 20:05:55.678          3413.122
                  18 Jun 2015 20:41:51.909    18 Jun 2015 21:38:44.624          3412.715
                  18 Jun 2015 22:14:41.246    18 Jun 2015 23:11:33.567          3412.321
                  18 Jun 2015 23:47:30.567    19 Jun 2015 00:44:22.500          3411.933
                  19 Jun 2015 01:20:19.872    19 Jun 2015 02:17:11.428          3411.557
                  19 Jun 2015 02:53:09.160    19 Jun 2015 03:50:00.350          3411.190
                  19 Jun 2015 04:25:58.432    19 Jun 2015 05:22:49.269          3410.837
                  19 Jun 2015 05:58:47.688    19 Jun 2015 06:55:38.177          3410.489
                  19 Jun 2015 07:31:36.928    19 Jun 2015 08:28:27.083          3410.155
                  19 Jun 2015 09:04:26.152    19 Jun 2015 10:01:15.986          3409.834
                  19 Jun 2015 10:37:15.360    19 Jun 2015 11:34:04.882          3409.522
                  19 Jun 2015 12:10:04.552    19 Jun 2015 13:06:53.772          3409.220
                  19 Jun 2015 13:42:53.729    19 Jun 2015 14:39:42.657          3408.928
                  19 Jun 2015 15:15:42.889    19 Jun 2015 16:12:31.537          3408.648
                  19 Jun 2015 16:48:32.035    19 Jun 2015 17:45:20.413          3408.378
                  19 Jun 2015 18:21:21.164    19 Jun 2015 19:18:09.284          3408.119
                  19 Jun 2015 19:54:10.278    19 Jun 2015 20:50:58.150          3407.871
                  19 Jun 2015 21:26:59.377    19 Jun 2015 22:23:47.011          3407.634
                  19 Jun 2015 22:59:48.460    19 Jun 2015 23:56:35.869          3407.408
                  20 Jun 2015 00:32:37.528    20 Jun 2015 01:29:24.722          3407.193
                  20 Jun 2015 02:05:26.581    20 Jun 2015 03:02:13.570          3406.989
                  20 Jun 2015 03:38:15.619    20 Jun 2015 04:35:02.415          3406.796
                  20 Jun 2015 05:11:04.641    20 Jun 2015 06:07:51.256          3406.615
                  20 Jun 2015 06:43:53.649    20 Jun 2015 07:40:40.093          3406.444
                  20 Jun 2015 08:16:42.642    20 Jun 2015 09:13:28.926          3406.285
                  20 Jun 2015 09:49:31.619    20 Jun 2015 10:46:17.756          3406.136
                  20 Jun 2015 11:22:20.582    20 Jun 2015 12:19:06.582          3406.000
                  20 Jun 2015 12:55:09.530    20 Jun 2015 13:51:55.404          3405.874
                  20 Jun 2015 14:27:58.464    20 Jun 2015 15:24:44.223          3405.760
                  20 Jun 2015 16:00:47.382    20 Jun 2015 16:57:33.039          3405.657
                  20 Jun 2015 17:33:36.286    20 Jun 2015 18:30:21.852          3405.566
                  20 Jun 2015 19:06:25.176    20 Jun 2015 20:03:10.662          3405.486
                  20 Jun 2015 20:39:14.051    20 Jun 2015 21:35:59.469          3405.418
                  20 Jun 2015 22:12:02.912    20 Jun 2015 23:08:48.273          3405.361
                  20 Jun 2015 23:44:51.758    21 Jun 2015 00:41:37.074          3405.316
                  21 Jun 2015 01:17:40.590    21 Jun 2015 02:14:25.873          3405.283
                  21 Jun 2015 02:50:29.408    21 Jun 2015 03:47:14.669          3405.261
                  21 Jun 2015 04:23:18.212    21 Jun 2015 05:20:03.463          3405.251
                  21 Jun 2015 05:56:07.002    21 Jun 2015 06:52:52.254          3405.253
                  21 Jun 2015 07:28:55.777    21 Jun 2015 08:25:41.044          3405.267
                  21 Jun 2015 09:01:44.538    21 Jun 2015 09:58:29.831          3405.292
                  21 Jun 2015 10:34:33.286    21 Jun 2015 11:31:18.616          3405.330
                  21 Jun 2015 12:07:22.020    21 Jun 2015 13:04:07.399          3405.380
                  21 Jun 2015 13:40:10.739    21 Jun 2015 14:36:56.181          3405.441
                  21 Jun 2015 15:12:59.445    21 Jun 2015 16:09:44.960          3405.515
                  21 Jun 2015 16:45:48.137    21 Jun 2015 17:42:33.739          3405.601
                  21 Jun 2015 18:18:36.816    21 Jun 2015 19:15:22.515          3405.699
                  21 Jun 2015 19:51:25.481    21 Jun 2015 20:48:11.291          3405.810
                  21 Jun 2015 21:24:14.132    21 Jun 2015 22:21:00.065          3405.933
                  21 Jun 2015 22:57:02.770    21 Jun 2015 23:53:48.838          3406.068
                  22 Jun 2015 00:29:51.394    22 Jun 2015 01:26:37.609          3406.216
                  22 Jun 2015 02:02:40.004    22 Jun 2015 02:59:26.380          3406.376
                  22 Jun 2015 03:35:28.602    22 Jun 2015 04:32:15.150          3406.549
                  22 Jun 2015 05:08:17.185    22 Jun 2015 06:05:03.919          3406.734
                  22 Jun 2015 06:41:05.756    22 Jun 2015 07:37:52.688          3406.932
                  22 Jun 2015 08:13:54.313    22 Jun 2015 09:10:41.456          3407.143
                  22 Jun 2015 09:46:42.857    22 Jun 2015 10:43:30.223          3407.366
                  22 Jun 2015 11:19:31.388    22 Jun 2015 12:16:18.991          3407.603
                  22 Jun 2015 12:52:19.906    22 Jun 2015 13:49:07.758          3407.852
                  22 Jun 2015 14:25:08.410    22 Jun 2015 15:21:56.524          3408.114
                  22 Jun 2015 15:57:56.902    22 Jun 2015 16:54:45.291          3408.390
                  22 Jun 2015 17:30:45.380    22 Jun 2015 18:27:34.058          3408.678
                  22 Jun 2015 19:03:33.846    22 Jun 2015 20:00:22.824          3408.978
                  22 Jun 2015 20:36:22.298    22 Jun 2015 21:33:11.594          3409.296
                  22 Jun 2015 22:09:10.738    22 Jun 2015 23:06:00.359          3409.622
                  22 Jun 2015 23:41:59.164    23 Jun 2015 00:38:49.129          3409.965
                  23 Jun 2015 01:14:47.578    23 Jun 2015 02:11:37.898          3410.320
                  23 Jun 2015 02:47:35.979    23 Jun 2015 03:44:26.668          3410.689
                  23 Jun 2015 04:20:24.367    23 Jun 2015 05:17:15.438          3411.071
                  23 Jun 2015 05:53:12.742    23 Jun 2015 06:50:04.210          3411.467
                  23 Jun 2015 07:26:01.105    23 Jun 2015 08:22:52.982          3411.877
                  23 Jun 2015 08:58:49.455    23 Jun 2015 09:55:41.754          3412.299
                  23 Jun 2015 10:31:37.792    23 Jun 2015 11:28:30.529          3412.736
                  23 Jun 2015 12:04:26.117    23 Jun 2015 13:01:19.305          3413.188
                  23 Jun 2015 13:37:14.429    23 Jun 2015 14:34:08.083          3413.654
                  23 Jun 2015 15:10:02.729    23 Jun 2015 16:06:56.864          3414.136
                  23 Jun 2015 16:42:51.015    23 Jun 2015 17:39:45.643          3414.628
                  23 Jun 2015 18:15:39.290    23 Jun 2015 19:12:34.426          3415.137
                  23 Jun 2015 19:48:27.552    23 Jun 2015 20:45:23.213          3415.661
                  23 Jun 2015 21:21:15.801    23 Jun 2015 22:18:12.000          3416.199
                  23 Jun 2015 22:54:04.038    23 Jun 2015 23:51:00.789          3416.751
                  24 Jun 2015 00:26:52.262    24 Jun 2015 01:23:49.581          3417.319
                  24 Jun 2015 01:59:40.475    24 Jun 2015 02:56:38.375          3417.901
                  24 Jun 2015 03:32:28.674    24 Jun 2015 04:29:27.172          3418.498
                  24 Jun 2015 05:05:16.861    24 Jun 2015 06:02:15.972          3419.110
                  24 Jun 2015 06:38:05.036    24 Jun 2015 07:35:04.774          3419.738
                  24 Jun 2015 08:10:53.199    24 Jun 2015 09:07:53.579          3420.380
                  24 Jun 2015 09:43:41.349    24 Jun 2015 10:40:42.387          3421.038
                  24 Jun 2015 11:16:29.487    24 Jun 2015 12:13:31.199          3421.712
                  24 Jun 2015 12:49:17.613    24 Jun 2015 13:46:20.014          3422.401
                  24 Jun 2015 14:22:05.726    24 Jun 2015 15:19:08.832          3423.106
                  24 Jun 2015 15:54:53.828    24 Jun 2015 16:51:57.653          3423.825
                  24 Jun 2015 17:27:41.917    24 Jun 2015 18:00:00.000          1938.083

Global Statistics
-----------------
Min Duration      24 Jun 2015 17:27:41.917    24 Jun 2015 18:00:00.000          1938.083
Max Duration      24 Jun 2015 15:54:53.828    24 Jun 2015 16:51:57.653          3423.825
Mean Duration                                                                   3397.538
Total Duration                                                                370331.596


Penumbra Times
--------------
                      Start Time (UTCG)           Stop Time (UTCG)        Duration (sec)
                  ------------------------    ------------------------    --------------
                  17 Jun 2015 18:23:42.288    17 Jun 2015 18:23:50.594             8.306
                  17 Jun 2015 19:20:51.617    17 Jun 2015 19:21:00.034             8.418
                  17 Jun 2015 19:56:31.924    17 Jun 2015 19:56:40.221             8.297
                  17 Jun 2015 20:53:40.674    17 Jun 2015 20:53:49.083             8.409
                  17 Jun 2015 21:29:21.541    17 Jun 2015 21:29:29.830             8.289
                  17 Jun 2015 22:26:29.726    17 Jun 2015 22:26:38.125             8.400
                  17 Jun 2015 23:02:11.143    17 Jun 2015 23:02:19.424             8.281
                  17 Jun 2015 23:59:18.770    17 Jun 2015 23:59:27.161             8.391
                  18 Jun 2015 00:35:00.726    18 Jun 2015 00:35:08.998             8.273
                  18 Jun 2015 01:32:07.806    18 Jun 2015 01:32:16.189             8.383
                  18 Jun 2015 02:07:50.291    18 Jun 2015 02:07:58.555             8.265
                  18 Jun 2015 03:04:56.834    18 Jun 2015 03:05:05.208             8.374
                  18 Jun 2015 03:40:39.837    18 Jun 2015 03:40:48.094             8.257
                  18 Jun 2015 04:37:45.854    18 Jun 2015 04:37:54.220             8.366
                  18 Jun 2015 05:13:29.367    18 Jun 2015 05:13:37.617             8.249
                  18 Jun 2015 06:10:34.867    18 Jun 2015 06:10:43.225             8.358
                  18 Jun 2015 06:46:18.880    18 Jun 2015 06:46:27.122             8.242
                  18 Jun 2015 07:43:23.873    18 Jun 2015 07:43:32.223             8.350
                  18 Jun 2015 08:19:08.376    18 Jun 2015 08:19:16.610             8.234
                  18 Jun 2015 09:16:12.872    18 Jun 2015 09:16:21.215             8.342
                  18 Jun 2015 09:51:57.854    18 Jun 2015 09:52:06.081             8.227
                  18 Jun 2015 10:49:01.864    18 Jun 2015 10:49:10.199             8.335
                  18 Jun 2015 11:24:47.316    18 Jun 2015 11:24:55.536             8.220
                  18 Jun 2015 12:21:50.851    18 Jun 2015 12:21:59.178             8.327
                  18 Jun 2015 12:57:36.761    18 Jun 2015 12:57:44.974             8.213
                  18 Jun 2015 13:54:39.829    18 Jun 2015 13:54:48.149             8.320
                  18 Jun 2015 14:30:26.188    18 Jun 2015 14:30:34.394             8.206
                  18 Jun 2015 15:27:28.801    18 Jun 2015 15:27:37.114             8.313
                  18 Jun 2015 16:03:15.598    18 Jun 2015 16:03:23.798             8.200
                  18 Jun 2015 17:00:17.766    18 Jun 2015 17:00:26.072             8.306
                  18 Jun 2015 17:36:04.992    18 Jun 2015 17:36:13.185             8.193
                  18 Jun 2015 18:33:06.725    18 Jun 2015 18:33:15.024             8.299
                  18 Jun 2015 19:08:54.368    18 Jun 2015 19:09:02.555             8.187
                  18 Jun 2015 20:05:55.678    18 Jun 2015 20:06:03.970             8.292
                  18 Jun 2015 20:41:43.728    18 Jun 2015 20:41:51.909             8.181
                  18 Jun 2015 21:38:44.624    18 Jun 2015 21:38:52.909             8.285
                  18 Jun 2015 22:14:33.072    18 Jun 2015 22:14:41.246             8.175
                  18 Jun 2015 23:11:33.567    18 Jun 2015 23:11:41.846             8.279
                  18 Jun 2015 23:47:22.398    18 Jun 2015 23:47:30.567             8.169
                  19 Jun 2015 00:44:22.500    19 Jun 2015 00:44:30.773             8.273
                  19 Jun 2015 01:20:11.708    19 Jun 2015 01:20:19.872             8.163
                  19 Jun 2015 02:17:11.428    19 Jun 2015 02:17:19.695             8.267
                  19 Jun 2015 02:53:01.002    19 Jun 2015 02:53:09.160             8.158
                  19 Jun 2015 03:50:00.350    19 Jun 2015 03:50:08.611             8.261
                  19 Jun 2015 04:25:50.280    19 Jun 2015 04:25:58.432             8.152
                  19 Jun 2015 05:22:49.269    19 Jun 2015 05:22:57.521             8.253
                  19 Jun 2015 05:58:39.541    19 Jun 2015 05:58:47.688             8.147
                  19 Jun 2015 06:55:38.177    19 Jun 2015 06:55:46.429             8.252
                  19 Jun 2015 07:31:28.786    19 Jun 2015 07:31:36.928             8.142
                  19 Jun 2015 08:28:27.083    19 Jun 2015 08:28:35.327             8.244
                  19 Jun 2015 09:04:18.015    19 Jun 2015 09:04:26.152             8.137
                  19 Jun 2015 10:01:15.986    19 Jun 2015 10:01:24.225             8.239
                  19 Jun 2015 10:37:07.228    19 Jun 2015 10:37:15.360             8.132
                  19 Jun 2015 11:34:04.882    19 Jun 2015 11:34:13.115             8.233
                  19 Jun 2015 12:09:56.425    19 Jun 2015 12:10:04.552             8.128
                  19 Jun 2015 13:06:53.772    19 Jun 2015 13:07:02.000             8.228
                  19 Jun 2015 13:42:45.605    19 Jun 2015 13:42:53.729             8.123
                  19 Jun 2015 14:39:42.657    19 Jun 2015 14:39:50.881             8.224
                  19 Jun 2015 15:15:34.770    19 Jun 2015 15:15:42.889             8.119
                  19 Jun 2015 16:12:31.537    19 Jun 2015 16:12:39.756             8.219
                  19 Jun 2015 16:48:23.920    19 Jun 2015 16:48:32.035             8.115
                  19 Jun 2015 17:45:20.413    19 Jun 2015 17:45:28.627             8.214
                  19 Jun 2015 18:21:13.053    19 Jun 2015 18:21:21.164             8.111
                  19 Jun 2015 19:18:09.284    19 Jun 2015 19:18:17.494             8.210
                  19 Jun 2015 19:54:02.171    19 Jun 2015 19:54:10.278             8.107
                  19 Jun 2015 20:50:58.150    19 Jun 2015 20:51:06.356             8.206
                  19 Jun 2015 21:26:51.274    19 Jun 2015 21:26:59.377             8.103
                  19 Jun 2015 22:23:47.011    19 Jun 2015 22:23:55.213             8.202
                  19 Jun 2015 22:59:40.360    19 Jun 2015 22:59:48.460             8.100
                  19 Jun 2015 23:56:35.869    19 Jun 2015 23:56:44.067             8.198
                  20 Jun 2015 00:32:29.432    20 Jun 2015 00:32:37.528             8.096
                  20 Jun 2015 01:29:24.722    20 Jun 2015 01:29:32.916             8.194
                  20 Jun 2015 02:05:18.488    20 Jun 2015 02:05:26.581             8.093
                  20 Jun 2015 03:02:13.570    20 Jun 2015 03:02:21.761             8.191
                  20 Jun 2015 03:38:07.529    20 Jun 2015 03:38:15.619             8.090
                  20 Jun 2015 04:35:02.415    20 Jun 2015 04:35:10.603             8.187
                  20 Jun 2015 05:10:56.554    20 Jun 2015 05:11:04.641             8.087
                  20 Jun 2015 06:07:51.256    20 Jun 2015 06:07:59.440             8.184
                  20 Jun 2015 06:43:45.564    20 Jun 2015 06:43:53.649             8.085
                  20 Jun 2015 07:40:40.093    20 Jun 2015 07:40:48.274             8.181
                  20 Jun 2015 08:16:34.559    20 Jun 2015 08:16:42.642             8.082
                  20 Jun 2015 09:13:28.926    20 Jun 2015 09:13:37.104             8.178
                  20 Jun 2015 09:49:23.539    20 Jun 2015 09:49:31.619             8.080
                  20 Jun 2015 10:46:17.756    20 Jun 2015 10:46:25.931             8.176
                  20 Jun 2015 11:22:12.505    20 Jun 2015 11:22:20.582             8.078
                  20 Jun 2015 12:19:06.582    20 Jun 2015 12:19:14.755             8.173
                  20 Jun 2015 12:55:01.455    20 Jun 2015 12:55:09.530             8.076
                  20 Jun 2015 13:51:55.404    20 Jun 2015 13:52:03.575             8.171
                  20 Jun 2015 14:27:50.390    20 Jun 2015 14:27:58.464             8.074
                  20 Jun 2015 15:24:44.223    20 Jun 2015 15:24:52.392             8.168
                  20 Jun 2015 16:00:39.310    20 Jun 2015 16:00:47.382             8.072
                  20 Jun 2015 16:57:33.039    20 Jun 2015 16:57:41.206             8.166
                  20 Jun 2015 17:33:28.216    20 Jun 2015 17:33:36.286             8.070
                  20 Jun 2015 18:30:21.852    20 Jun 2015 18:30:30.017             8.164
                  20 Jun 2015 19:06:17.107    20 Jun 2015 19:06:25.176             8.069
                  20 Jun 2015 20:03:10.662    20 Jun 2015 20:03:18.825             8.163
                  20 Jun 2015 20:39:05.984    20 Jun 2015 20:39:14.051             8.068
                  20 Jun 2015 21:35:59.469    20 Jun 2015 21:36:07.630             8.161
                  20 Jun 2015 22:11:54.845    20 Jun 2015 22:12:02.912             8.067
                  20 Jun 2015 23:08:48.273    20 Jun 2015 23:08:56.433             8.160
                  20 Jun 2015 23:44:43.693    20 Jun 2015 23:44:51.758             8.066
                  21 Jun 2015 00:41:37.074    21 Jun 2015 00:41:45.233             8.159
                  21 Jun 2015 01:17:32.525    21 Jun 2015 01:17:40.590             8.065
                  21 Jun 2015 02:14:25.873    21 Jun 2015 02:14:34.031             8.158
                  21 Jun 2015 02:50:21.344    21 Jun 2015 02:50:29.408             8.064
                  21 Jun 2015 03:47:14.669    21 Jun 2015 03:47:22.826             8.157
                  21 Jun 2015 04:23:10.148    21 Jun 2015 04:23:18.212             8.064
                  21 Jun 2015 05:20:03.463    21 Jun 2015 05:20:11.619             8.156
                  21 Jun 2015 05:55:58.938    21 Jun 2015 05:56:07.002             8.064
                  21 Jun 2015 06:52:52.254    21 Jun 2015 06:53:00.410             8.155
                  21 Jun 2015 07:28:47.713    21 Jun 2015 07:28:55.777             8.064
                  21 Jun 2015 08:25:41.044    21 Jun 2015 08:25:49.199             8.155
                  21 Jun 2015 09:01:36.475    21 Jun 2015 09:01:44.538             8.064
                  21 Jun 2015 09:58:29.831    21 Jun 2015 09:58:37.986             8.155
                  21 Jun 2015 10:34:25.222    21 Jun 2015 10:34:33.286             8.064
                  21 Jun 2015 11:31:18.616    21 Jun 2015 11:31:26.771             8.155
                  21 Jun 2015 12:07:13.955    21 Jun 2015 12:07:22.020             8.065
                  21 Jun 2015 13:04:07.399    21 Jun 2015 13:04:15.554             8.155
                  21 Jun 2015 13:40:02.674    21 Jun 2015 13:40:10.739             8.065
                  21 Jun 2015 14:36:56.181    21 Jun 2015 14:37:04.336             8.155
                  21 Jun 2015 15:12:51.379    21 Jun 2015 15:12:59.445             8.066
                  21 Jun 2015 16:09:44.960    21 Jun 2015 16:09:53.116             8.156
                  21 Jun 2015 16:45:40.070    21 Jun 2015 16:45:48.137             8.067
                  21 Jun 2015 17:42:33.739    21 Jun 2015 17:42:41.895             8.157
                  21 Jun 2015 18:18:28.748    21 Jun 2015 18:18:36.816             8.068
                  21 Jun 2015 19:15:22.515    21 Jun 2015 19:15:30.673             8.157
                  21 Jun 2015 19:51:17.411    21 Jun 2015 19:51:25.481             8.070
                  21 Jun 2015 20:48:11.291    21 Jun 2015 20:48:19.449             8.159
                  21 Jun 2015 21:24:06.061    21 Jun 2015 21:24:14.132             8.071
                  21 Jun 2015 22:21:00.065    21 Jun 2015 22:21:08.224             8.160
                  21 Jun 2015 22:56:54.697    21 Jun 2015 22:57:02.770             8.073
                  21 Jun 2015 23:53:48.838    21 Jun 2015 23:53:56.999             8.161
                  22 Jun 2015 00:29:43.319    22 Jun 2015 00:29:51.394             8.075
                  22 Jun 2015 01:26:37.609    22 Jun 2015 01:26:45.772             8.163
                  22 Jun 2015 02:02:31.928    22 Jun 2015 02:02:40.004             8.077
                  22 Jun 2015 02:59:26.380    22 Jun 2015 02:59:34.545             8.165
                  22 Jun 2015 03:35:20.523    22 Jun 2015 03:35:28.602             8.079
                  22 Jun 2015 04:32:15.150    22 Jun 2015 04:32:23.317             8.166
                  22 Jun 2015 05:08:09.104    22 Jun 2015 05:08:17.185             8.081
                  22 Jun 2015 06:05:03.919    22 Jun 2015 06:05:12.088             8.169
                  22 Jun 2015 06:40:57.672    22 Jun 2015 06:41:05.756             8.084
                  22 Jun 2015 07:37:52.688    22 Jun 2015 07:38:00.859             8.171
                  22 Jun 2015 08:13:46.227    22 Jun 2015 08:13:54.313             8.087
                  22 Jun 2015 09:10:41.456    22 Jun 2015 09:10:49.629             8.173
                  22 Jun 2015 09:46:34.768    22 Jun 2015 09:46:42.857             8.090
                  22 Jun 2015 10:43:30.223    22 Jun 2015 10:43:38.400             8.176
                  22 Jun 2015 11:19:23.295    22 Jun 2015 11:19:31.388             8.093
                  22 Jun 2015 12:16:18.991    22 Jun 2015 12:16:27.170             8.179
                  22 Jun 2015 12:52:11.810    22 Jun 2015 12:52:19.906             8.096
                  22 Jun 2015 13:49:07.758    22 Jun 2015 13:49:15.940             8.182
                  22 Jun 2015 14:25:00.311    22 Jun 2015 14:25:08.410             8.099
                  22 Jun 2015 15:21:56.524    22 Jun 2015 15:22:04.708             8.184
                  22 Jun 2015 15:57:48.799    22 Jun 2015 15:57:56.902             8.103
                  22 Jun 2015 16:54:45.291    22 Jun 2015 16:54:53.481             8.190
                  22 Jun 2015 17:30:37.273    22 Jun 2015 17:30:45.380             8.107
                  22 Jun 2015 18:27:34.058    22 Jun 2015 18:27:42.249             8.191
                  22 Jun 2015 19:03:25.735    22 Jun 2015 19:03:33.846             8.111
                  22 Jun 2015 20:00:22.824    22 Jun 2015 20:00:31.020             8.196
                  22 Jun 2015 20:36:14.183    22 Jun 2015 20:36:22.298             8.115
                  22 Jun 2015 21:33:11.594    22 Jun 2015 21:33:19.793             8.199
                  22 Jun 2015 22:09:02.618    22 Jun 2015 22:09:10.738             8.120
                  22 Jun 2015 23:06:00.359    22 Jun 2015 23:06:08.565             8.206
                  22 Jun 2015 23:41:51.040    22 Jun 2015 23:41:59.164             8.124
                  23 Jun 2015 00:38:49.129    23 Jun 2015 00:38:57.338             8.209
                  23 Jun 2015 01:14:39.449    23 Jun 2015 01:14:47.578             8.129
                  23 Jun 2015 02:11:37.898    23 Jun 2015 02:11:46.111             8.213
                  23 Jun 2015 02:47:27.845    23 Jun 2015 02:47:35.979             8.134
                  23 Jun 2015 03:44:26.668    23 Jun 2015 03:44:34.886             8.218
                  23 Jun 2015 04:20:16.228    23 Jun 2015 04:20:24.367             8.139
                  23 Jun 2015 05:17:15.438    23 Jun 2015 05:17:23.662             8.223
                  23 Jun 2015 05:53:04.598    23 Jun 2015 05:53:12.742             8.145
                  23 Jun 2015 06:50:04.210    23 Jun 2015 06:50:12.438             8.228
                  23 Jun 2015 07:25:52.955    23 Jun 2015 07:26:01.105             8.150
                  23 Jun 2015 08:22:52.982    23 Jun 2015 08:23:01.214             8.231
                  23 Jun 2015 08:58:41.299    23 Jun 2015 08:58:49.455             8.156
                  23 Jun 2015 09:55:41.754    23 Jun 2015 09:55:49.993             8.239
                  23 Jun 2015 10:31:29.630    23 Jun 2015 10:31:37.792             8.162
                  23 Jun 2015 11:28:30.529    23 Jun 2015 11:28:38.774             8.245
                  23 Jun 2015 12:04:17.949    23 Jun 2015 12:04:26.117             8.168
                  23 Jun 2015 13:01:19.305    23 Jun 2015 13:01:27.558             8.252
                  23 Jun 2015 13:37:06.254    23 Jun 2015 13:37:14.429             8.175
                  23 Jun 2015 14:34:08.083    23 Jun 2015 14:34:16.342             8.259
                  23 Jun 2015 15:09:54.547    23 Jun 2015 15:10:02.729             8.181
                  23 Jun 2015 16:06:56.864    23 Jun 2015 16:07:05.127             8.262
                  23 Jun 2015 16:42:42.827    23 Jun 2015 16:42:51.015             8.188
                  23 Jun 2015 17:39:45.643    23 Jun 2015 17:39:53.915             8.271
                  23 Jun 2015 18:15:31.095    23 Jun 2015 18:15:39.290             8.195
                  23 Jun 2015 19:12:34.426    23 Jun 2015 19:12:42.705             8.278
                  23 Jun 2015 19:48:19.349    23 Jun 2015 19:48:27.552             8.203
                  23 Jun 2015 20:45:23.213    23 Jun 2015 20:45:31.497             8.284
                  23 Jun 2015 21:21:07.591    23 Jun 2015 21:21:15.801             8.210
                  23 Jun 2015 22:18:12.000    23 Jun 2015 22:18:20.291             8.291
                  23 Jun 2015 22:53:55.820    23 Jun 2015 22:54:04.038             8.218
                  23 Jun 2015 23:51:00.789    23 Jun 2015 23:51:09.091             8.302
                  24 Jun 2015 00:26:44.037    24 Jun 2015 00:26:52.262             8.225
                  24 Jun 2015 01:23:49.581    24 Jun 2015 01:23:57.888             8.307
                  24 Jun 2015 01:59:32.241    24 Jun 2015 01:59:40.475             8.234
                  24 Jun 2015 02:56:38.375    24 Jun 2015 02:56:46.690             8.314
                  24 Jun 2015 03:32:20.432    24 Jun 2015 03:32:28.674             8.242
                  24 Jun 2015 04:29:27.172    24 Jun 2015 04:29:35.495             8.323
                  24 Jun 2015 05:05:08.611    24 Jun 2015 05:05:16.861             8.250
                  24 Jun 2015 06:02:15.972    24 Jun 2015 06:02:24.303             8.331
                  24 Jun 2015 06:37:56.777    24 Jun 2015 06:38:05.036             8.259
                  24 Jun 2015 07:35:04.774    24 Jun 2015 07:35:13.113             8.339
                  24 Jun 2015 08:10:44.931    24 Jun 2015 08:10:53.199             8.268
                  24 Jun 2015 09:07:53.579    24 Jun 2015 09:08:01.927             8.348
                  24 Jun 2015 09:43:33.072    24 Jun 2015 09:43:41.349             8.277
                  24 Jun 2015 10:40:42.387    24 Jun 2015 10:40:50.745             8.357
                  24 Jun 2015 11:16:21.200    24 Jun 2015 11:16:29.487             8.287
                  24 Jun 2015 12:13:31.199    24 Jun 2015 12:13:39.565             8.366
                  24 Jun 2015 12:49:09.316    24 Jun 2015 12:49:17.613             8.296
                  24 Jun 2015 13:46:20.014    24 Jun 2015 13:46:28.389             8.376
                  24 Jun 2015 14:21:57.421    24 Jun 2015 14:22:05.726             8.305
                  24 Jun 2015 15:19:08.832    24 Jun 2015 15:19:17.217             8.386
                  24 Jun 2015 15:54:45.512    24 Jun 2015 15:54:53.828             8.316
                  24 Jun 2015 16:51:57.653    24 Jun 2015 16:52:06.049             8.395
                  24 Jun 2015 17:27:33.590    24 Jun 2015 17:27:41.917             8.326

Global Statistics
-----------------
Min Duration      21 Jun 2015 07:28:47.713    21 Jun 2015 07:28:55.777             8.064
Max Duration      17 Jun 2015 19:20:51.617    17 Jun 2015 19:21:00.034             8.418
Mean Duration                                                                      8.194
Total Duration                                                                  1778.183


Umbra Times
-----------
                      Start Time (UTCG)           Stop Time (UTCG)        Duration (sec)
                  ------------------------    ------------------------    --------------
                  17 Jun 2015 18:00:00.000    17 Jun 2015 18:23:42.288          1422.288
                  17 Jun 2015 19:21:00.034    17 Jun 2015 19:56:31.924          2131.890
                  17 Jun 2015 20:53:49.083    17 Jun 2015 21:29:21.541          2132.458
                  17 Jun 2015 22:26:38.125    17 Jun 2015 23:02:11.143          2133.017
                  17 Jun 2015 23:59:27.161    18 Jun 2015 00:35:00.726          2133.564
                  18 Jun 2015 01:32:16.189    18 Jun 2015 02:07:50.291          2134.102
                  18 Jun 2015 03:05:05.208    18 Jun 2015 03:40:39.837          2134.629
                  18 Jun 2015 04:37:54.220    18 Jun 2015 05:13:29.367          2135.148
                  18 Jun 2015 06:10:43.225    18 Jun 2015 06:46:18.880          2135.655
                  18 Jun 2015 07:43:32.223    18 Jun 2015 08:19:08.376          2136.153
                  18 Jun 2015 09:16:21.215    18 Jun 2015 09:51:57.854          2136.640
                  18 Jun 2015 10:49:10.199    18 Jun 2015 11:24:47.316          2137.117
                  18 Jun 2015 12:21:59.178    18 Jun 2015 12:57:36.761          2137.583
                  18 Jun 2015 13:54:48.149    18 Jun 2015 14:30:26.188          2138.039
                  18 Jun 2015 15:27:37.114    18 Jun 2015 16:03:15.598          2138.485
                  18 Jun 2015 17:00:26.072    18 Jun 2015 17:36:04.992          2138.920
                  18 Jun 2015 18:33:15.024    18 Jun 2015 19:08:54.368          2139.344
                  18 Jun 2015 20:06:03.970    18 Jun 2015 20:41:43.728          2139.759
                  18 Jun 2015 21:38:52.909    18 Jun 2015 22:14:33.072          2140.162
                  18 Jun 2015 23:11:41.846    18 Jun 2015 23:47:22.398          2140.552
                  19 Jun 2015 00:44:30.773    19 Jun 2015 01:20:11.708          2140.935
                  19 Jun 2015 02:17:19.695    19 Jun 2015 02:53:01.002          2141.307
                  19 Jun 2015 03:50:08.611    19 Jun 2015 04:25:50.280          2141.669
                  19 Jun 2015 05:22:57.521    19 Jun 2015 05:58:39.541          2142.019
                  19 Jun 2015 06:55:46.429    19 Jun 2015 07:31:28.786          2142.357
                  19 Jun 2015 08:28:35.327    19 Jun 2015 09:04:18.015          2142.688
                  19 Jun 2015 10:01:24.225    19 Jun 2015 10:37:07.228          2143.003
                  19 Jun 2015 11:34:13.115    19 Jun 2015 12:09:56.425          2143.309
                  19 Jun 2015 13:07:02.000    19 Jun 2015 13:42:45.605          2143.605
                  19 Jun 2015 14:39:50.881    19 Jun 2015 15:15:34.770          2143.890
                  19 Jun 2015 16:12:39.756    19 Jun 2015 16:48:23.920          2144.163
                  19 Jun 2015 17:45:28.627    19 Jun 2015 18:21:13.053          2144.426
                  19 Jun 2015 19:18:17.494    19 Jun 2015 19:54:02.171          2144.678
                  19 Jun 2015 20:51:06.356    19 Jun 2015 21:26:51.274          2144.918
                  19 Jun 2015 22:23:55.213    19 Jun 2015 22:59:40.360          2145.147
                  19 Jun 2015 23:56:44.067    20 Jun 2015 00:32:29.432          2145.365
                  20 Jun 2015 01:29:32.916    20 Jun 2015 02:05:18.488          2145.572
                  20 Jun 2015 03:02:21.761    20 Jun 2015 03:38:07.529          2145.767
                  20 Jun 2015 04:35:10.603    20 Jun 2015 05:10:56.554          2145.951
                  20 Jun 2015 06:07:59.440    20 Jun 2015 06:43:45.564          2146.124
                  20 Jun 2015 07:40:48.274    20 Jun 2015 08:16:34.559          2146.285
                  20 Jun 2015 09:13:37.104    20 Jun 2015 09:49:23.539          2146.435
                  20 Jun 2015 10:46:25.931    20 Jun 2015 11:22:12.505          2146.573
                  20 Jun 2015 12:19:14.755    20 Jun 2015 12:55:01.455          2146.700
                  20 Jun 2015 13:52:03.575    20 Jun 2015 14:27:50.390          2146.815
                  20 Jun 2015 15:24:52.392    20 Jun 2015 16:00:39.310          2146.919
                  20 Jun 2015 16:57:41.206    20 Jun 2015 17:33:28.216          2147.010
                  20 Jun 2015 18:30:30.017    20 Jun 2015 19:06:17.107          2147.090
                  20 Jun 2015 20:03:18.825    20 Jun 2015 20:39:05.984          2147.159
                  20 Jun 2015 21:36:07.630    20 Jun 2015 22:11:54.845          2147.215
                  20 Jun 2015 23:08:56.433    20 Jun 2015 23:44:43.693          2147.260
                  21 Jun 2015 00:41:45.233    21 Jun 2015 01:17:32.525          2147.293
                  21 Jun 2015 02:14:34.031    21 Jun 2015 02:50:21.344          2147.313
                  21 Jun 2015 03:47:22.826    21 Jun 2015 04:23:10.148          2147.322
                  21 Jun 2015 05:20:11.619    21 Jun 2015 05:55:58.938          2147.319
                  21 Jun 2015 06:53:00.410    21 Jun 2015 07:28:47.713          2147.303
                  21 Jun 2015 08:25:49.199    21 Jun 2015 09:01:36.475          2147.276
                  21 Jun 2015 09:58:37.986    21 Jun 2015 10:34:25.222          2147.236
                  21 Jun 2015 11:31:26.771    21 Jun 2015 12:07:13.955          2147.184
                  21 Jun 2015 13:04:15.554    21 Jun 2015 13:40:02.674          2147.120
                  21 Jun 2015 14:37:04.336    21 Jun 2015 15:12:51.379          2147.043
                  21 Jun 2015 16:09:53.116    21 Jun 2015 16:45:40.070          2146.954
                  21 Jun 2015 17:42:41.895    21 Jun 2015 18:18:28.748          2146.852
                  21 Jun 2015 19:15:30.673    21 Jun 2015 19:51:17.411          2146.738
                  21 Jun 2015 20:48:19.449    21 Jun 2015 21:24:06.061          2146.612
                  21 Jun 2015 22:21:08.224    21 Jun 2015 22:56:54.697          2146.472
                  21 Jun 2015 23:53:56.999    22 Jun 2015 00:29:43.319          2146.320
                  22 Jun 2015 01:26:45.772    22 Jun 2015 02:02:31.928          2146.156
                  22 Jun 2015 02:59:34.545    22 Jun 2015 03:35:20.523          2145.978
                  22 Jun 2015 04:32:23.317    22 Jun 2015 05:08:09.104          2145.788
                  22 Jun 2015 06:05:12.088    22 Jun 2015 06:40:57.672          2145.584
                  22 Jun 2015 07:38:00.859    22 Jun 2015 08:13:46.227          2145.368
                  22 Jun 2015 09:10:49.629    22 Jun 2015 09:46:34.768          2145.138
                  22 Jun 2015 10:43:38.400    22 Jun 2015 11:19:23.295          2144.896
                  22 Jun 2015 12:16:27.170    22 Jun 2015 12:52:11.810          2144.640
                  22 Jun 2015 13:49:15.940    22 Jun 2015 14:25:00.311          2144.371
                  22 Jun 2015 15:22:04.708    22 Jun 2015 15:57:48.799          2144.090
                  22 Jun 2015 16:54:53.481    22 Jun 2015 17:30:37.273          2143.792
                  22 Jun 2015 18:27:42.249    22 Jun 2015 19:03:25.735          2143.485
                  22 Jun 2015 20:00:31.020    22 Jun 2015 20:36:14.183          2143.162
                  22 Jun 2015 21:33:19.793    22 Jun 2015 22:09:02.618          2142.825
                  22 Jun 2015 23:06:08.565    22 Jun 2015 23:41:51.040          2142.475
                  23 Jun 2015 00:38:57.338    23 Jun 2015 01:14:39.449          2142.111
                  23 Jun 2015 02:11:46.111    23 Jun 2015 02:47:27.845          2141.733
                  23 Jun 2015 03:44:34.886    23 Jun 2015 04:20:16.228          2141.342
                  23 Jun 2015 05:17:23.662    23 Jun 2015 05:53:04.598          2140.936
                  23 Jun 2015 06:50:12.438    23 Jun 2015 07:25:52.955          2140.516
                  23 Jun 2015 08:23:01.214    23 Jun 2015 08:58:41.299          2140.085
                  23 Jun 2015 09:55:49.993    23 Jun 2015 10:31:29.630          2139.637
                  23 Jun 2015 11:28:38.774    23 Jun 2015 12:04:17.949          2139.175
                  23 Jun 2015 13:01:27.558    23 Jun 2015 13:37:06.254          2138.697
                  23 Jun 2015 14:34:16.342    23 Jun 2015 15:09:54.547          2138.205
                  23 Jun 2015 16:07:05.127    23 Jun 2015 16:42:42.827          2137.701
                  23 Jun 2015 17:39:53.915    23 Jun 2015 18:15:31.095          2137.180
                  23 Jun 2015 19:12:42.705    23 Jun 2015 19:48:19.349          2136.645
                  23 Jun 2015 20:45:31.497    23 Jun 2015 21:21:07.591          2136.094
                  23 Jun 2015 22:18:20.291    23 Jun 2015 22:53:55.820          2135.529
                  23 Jun 2015 23:51:09.091    24 Jun 2015 00:26:44.037          2134.946
                  24 Jun 2015 01:23:57.888    24 Jun 2015 01:59:32.241          2134.353
                  24 Jun 2015 02:56:46.690    24 Jun 2015 03:32:20.432          2133.742
                  24 Jun 2015 04:29:35.495    24 Jun 2015 05:05:08.611          2133.116
                  24 Jun 2015 06:02:24.303    24 Jun 2015 06:37:56.777          2132.475
                  24 Jun 2015 07:35:13.113    24 Jun 2015 08:10:44.931          2131.817
                  24 Jun 2015 09:08:01.927    24 Jun 2015 09:43:33.072          2131.145
                  24 Jun 2015 10:40:50.745    24 Jun 2015 11:16:21.200          2130.456
                  24 Jun 2015 12:13:39.565    24 Jun 2015 12:49:09.316          2129.751
                  24 Jun 2015 13:46:28.389    24 Jun 2015 14:21:57.421          2129.032
                  24 Jun 2015 15:19:17.217    24 Jun 2015 15:54:45.512          2128.295
                  24 Jun 2015 16:52:06.049    24 Jun 2015 17:27:33.590          2127.541

Global Statistics
-----------------
Min Duration      17 Jun 2015 18:00:00.000    17 Jun 2015 18:23:42.288          1422.288
Max Duration      21 Jun 2015 03:47:22.826    21 Jun 2015 04:23:10.148          2147.322
Mean Duration                                                                   2134.773
Total Duration                                                                232690.222
